[
    {
        "name": "Gothenburg, Scandinavium Arena",
        "lat": 57.70010540,
        "lat_d": "N",
        "lon": 11.98827592,
        "lon_d": "E",
        "alt": 4,
        "head": 260.0
    },
    {
        "name": "Washington, Capitoleum",
        "lat": 38.88929635,
        "lat_d": "N",
        "lon": -77.05015276,
        "lon_d": "W",
        "alt": 9,
        "head": 270.0
    },
    {
        "name": "London, Prime Meridian",
        "lat": 51.47788500,
        "lat_d": "N",
        "lon": 0.00,
        "lon_d": "E",
        "alt": 47,
        "head": 300.0
    },
    {
        "name": "Japan, Mount Fuji",
        "lat": 35.36055489,
        "lat_d": "N",
        "lon": 138.72738484,
        "lon_d": "E",
        "alt": 3776.0,
        "head": 0.0
    },
    {
        "name": "San Fransisco, Golden Gate Bridge",
        "lat": 37.81856987,
        "lat_d": "N",
        "lon": -122.47846487,
        "lon_d": "W",
        "alt": 100,
        "head": 340.0
    },
    {
        "name": "Buenos Aires, Airport",
        "lat": -34.56042729,
        "lat_d": "S",
        "lon": -58.41363783,
        "lon_d": "W",
        "alt": 100,
        "head": 340.0
    }
]